{"station_id":"hub_290","name":"P127 Central Ave / Roosevelt St","region_id":"region_80","lon":-112.074010667085,"lat":33.4591031356657,"address":"1000-1034 North Central Avenue, Phoenix"}
{"station_id":"hub_297","name":"P131 Central Ave / Willetta St  (Sponsored by APS)","region_id":"region_80","lon":-112.073689688038,"lat":33.4638486462657,"address":"1401 North Central Avenue, Phoenix"}
{"station_id":"hub_299","name":"P113 11th St. / Washington St","region_id":"region_80","lon":-112.059274069241,"lat":33.4482349606463,"address":"1010-1098 East Washington Street, Phoenix"}
{"station_id":"hub_305","name":"P116 6th St. / Monroe St (Sponsored by SRP)","region_id":"region_80","lon":-112.06649601459503,"lat":33.4503360695349,"address":"567-599 East Monroe Street, Arizona State University Downtown Phoenix, Phoenix"}
{"station_id":"hub_309","name":"P123 5th Ave / Fillmore St","region_id":"region_80","lon":-112.08021107366,"lat":33.454811805242,"address":"604, North 5th Avenue, Phoenix, Arizona"}
{"station_id":"hub_314","name":"P133 5th Ave / McDowell Rd","region_id":"region_80","lon":-112.08030939102173,"lat":33.465861496496444,"address":"1600-1664 North 5th Avenue, Phoenix"}
{"station_id":"hub_316","name":"P144 Central Ave / Lexington Ave","region_id":"region_80","lon":-112.073781944336,"lat":33.4863116895857,"address":"Light Rail, North Central Avenue, Encanto, Phoenix, Arizona"}
{"station_id":"hub_321","name":"P139 Central Ave / Vernon Ave","region_id":"region_80","lon":-112.074066048658,"lat":33.474214157849,"address":"2334 North Central Avenue, Phoenix"}
{"station_id":"hub_322","name":"P147 7th Ave / Glenrosa Ave","region_id":"region_80","lon":-112.08357095718384,"lat":33.49833774425573,"address":"4130, North 7th Avenue, Encanto, Phoenix, Arizona"}
{"station_id":"hub_323","name":"P148 Central Ave / Glenrosa Ave (Sponsored by SRP)","region_id":"region_80","lon":-112.073801245027,"lat":33.4980131383229,"address":"11 West Glenrosa Avenue, Phoenix"}
{"station_id":"hub_325","name":"P150 Central Ave / Camelback Rd (Sponsored by SRP)","region_id":"region_80","lon":-112.075066378634,"lat":33.5086025352445,"address":"Light Rail, West Camelback Road, Phoenix, Arizona"}
{"station_id":"hub_329","name":"P122 Grand Ave / McKinley St","region_id":"region_80","lon":-112.089269123464,"lat":33.456967738827,"address":"Grand Avenue, Phoenix, Arizona"}
{"station_id":"hub_330","name":"P146 4th Ave / Clarendon Ave","region_id":"region_80","lon":-112.079007760543,"lat":33.4914509272301,"address":"401 West Clarendon Avenue, Phoenix"}
{"station_id":"hub_358","name":"P101 5th St / Grant St","region_id":"region_80","lon":-112.066667675974,"lat":33.44093397975,"address":"East Grant Street, Central City, Phoenix, Arizona"}
{"station_id":"hub_359","name":"P104 Jackson St / 2nd St (Sponsored by SRP)","region_id":"region_80","lon":-112.071206914651,"lat":33.4451804740693,"address":"200 East Jackson Street, Phoenix"}
{"station_id":"hub_360","name":"P114 Adams St / 2nd Ave (City Hall)","region_id":"region_80","lon":-112.07670064254,"lat":33.4493486960483,"address":"Orpheum Theatre, 203, West Adams Street, Phoenix, Arizona"}
{"station_id":"hub_363","name":"P137 12th St / Oak St","region_id":"region_80","lon":-112.056342282703,"lat":33.4730304810094,"address":"1200 East Oak Street, Phoenix"}
{"station_id":"hub_364","name":"P149 Central Ave / Campbell Ave","region_id":"region_80","lon":-112.074024910907,"lat":33.5016735723,"address":"4412, North Central Avenue, Encanto, Phoenix, Arizona"}
{"station_id":"hub_365","name":"P154 Central Ave / Thomas Rd","region_id":"region_80","lon":-112.073863778945,"lat":33.4800250653744,"address":"3 East Thomas Road, Phoenix"}
{"station_id":"hub_367","name":"P140 8th St / Sheridan St","region_id":"region_80","lon":-112.064066269354,"lat":33.4748338674807,"address":"East Sheridan Street, Encanto, Phoenix, Arizona"}
{"station_id":"hub_492","name":"P138 Encanto Park","region_id":"region_80","lon":-112.090162135878,"lat":33.4714711951801,"address":"West Holly Street, Encanto, Phoenix, Arizona"}
{"station_id":"hub_595","name":"P141 Phoenix College","region_id":"region_80","lon":-112.08823800086975,"lat":33.483115669750546,"address":"3000-3048 North 11th Avenue, Phoenix"}
{"station_id":"hub_620","name":"P102 1st St / Buchanan ","region_id":"region_80","lon":-112.072499955984,"lat":33.4435864339528,"address":"Suite 1400, South 1st Street, Phoenix, Arizona"}
{"station_id":"hub_621","name":"P121 5th St / Van Buren St (Sponsored by APS)","region_id":"region_80","lon":-112.06747626846,"lat":33.4515775957345,"address":"College of Medicine Administration, 550, East Van Buren Street, Central City, Phoenix, Arizona"}
{"station_id":"hub_628","name":"P132 10th St / Roosevelt St","region_id":"region_80","lon":-112.060802366799,"lat":33.4588190671665,"address":"1001 North 10th Street, Phoenix"}
{"station_id":"hub_629","name":"P120 Central Ave / Taylor St","region_id":"region_80","lon":-112.074026997431,"lat":33.4535346952061,"address":"METRO Light Rail, East Washington Street (Frontage Road), Central City, Phoenix, Arizona"}
{"station_id":"hub_632","name":"P129 5th St / Roosevelt St","region_id":"region_80","lon":-112.06745624542235,"lat":33.458942753687616,"address":"1000-1022 North 5th Street, Phoenix"}
{"station_id":"hub_655","name":"7th St. / Garfield St (hosted by Mother Bunch Brewery)","region_id":"region_80","lon":-112.065033976668,"lat":33.4572458992005,"address":"809 North 7th Street, Phoenix"}
{"station_id":"hub_658","name":"P112 3rd St / Washington St (Convention Center)","region_id":"region_80","lon":-112.07004994153976,"lat":33.448582067540656,"address":"32 North 3rd Street, Phoenix"}
{"station_id":"hub_660","name":"P124 3rd St / Taylor St (Sponsored by APS)","region_id":"region_80","lon":-112.07012504339218,"lat":33.453298068667124,"address":"3rd St -- Taylor St, Phoenix"}
{"station_id":"hub_661","name":"P109 Adams St / 1st Ave","region_id":"region_80","lon":-112.07536339759827,"lat":33.44955726345848,"address":"114 West Adams Street, Phoenix"}
{"station_id":"hub_663","name":"P106: 1st St / Washington St (Sponsored by SRP)","region_id":"region_80","lon":-112.07254707813263,"lat":33.44788773031642,"address":"2 East Jefferson Street, Phoenix"}
{"station_id":"hub_665","name":"P145 5th St / Osborn Rd","region_id":"region_80","lon":-112.06732213497162,"lat":33.48779106632222,"address":"3400-3498 North 5th Street, Phoenix"}
{"station_id":"hub_666","name":"P117 Grand Ave / 10th Ave","region_id":"region_80","lon":-112.086362621544,"lat":33.4546981241866,"address":"1000-1098 Phoenix-Wickenburg Highway, Phoenix"}
{"station_id":"hub_1267","name":"P172 4th Street / Jackson St ","region_id":"region_80","lon":-112.06869810819626,"lat":33.44502304049054,"address":"310 South 4th Street, Phoenix"}